{"version": 0.6, "generator": "Overpass API 0.7.57.1 74a55df1", "osm3s": {"timestamp_osm_base": "2022-01-15T03:46:10Z", "copyright": "The data included in this document is from www.openstreetmap.org. The data is made available under ODbL."}, "elements": [{"type": "node", "id": 368634883, "lat": 37.4809746, "lon": 126.9521053, "tags": {"amenity": "cinema", "name": "\ub86f\ub370\uc2dc\ub124\ub9c8 \uc11c\uc6b8\ub300\uc785\uad6c", "name:en": "Lotte Cinema Seoul Nat'l Univ.", "name:ja": "\u30ed\u30c3\u30c6\u30b7\u30cd\u30de \u30bd\u30a6\u30eb\u30c7\u30a4\u30c3\u30af", "name:ko": "\ub86f\ub370\uc2dc\ub124\ub9c8 \uc11c\uc6b8\ub300\uc785\uad6c", "name:zh": "\u4e50\u5929\u5f71\u57ce \u9996\u5c14\u5927\u5b66", "wheelchair": "yes"}}, {"type": "node", "id": 368738593, "lat": 37.4798313, "lon": 126.9529338, "tags": {"amenity": "doctors", "healthcare": "doctor", "healthcare:speciality": "dermatology;plastic_surgery", "name": "\uace0\uc6b4\uc5bc\uad74\ud53c\ubd80\uacfc\uc131\ud615\uc678\uacfc", "name:en": "Gouneolgul Dermatologic Plastic Surgery", "name:ko": "\uace0\uc6b4\uc5bc\uad74\ud53c\ubd80\uacfc\uc131\ud615\uc678\uacfc", "wheelchair": "yes"}}, {"type": "node", "id": 368740421, "lat": 37.48011, "lon": 126.95204, "tags": {"amenity": "dentist", "name": "\uace0\uc6b4\ubbf8\uc18c\uce58\uacfc \uad00\uc545\uc810", "name:en": "Miso Dental Clinic Gwanak", "name:ko": "\uace0\uc6b4\ubbf8\uc18c\uce58\uacfc \uad00\uc545\uc810", "ncat": "\uce58\uacfc", "wheelchair": "yes"}}, {"type": "node", "id": 5744702254, "lat": 37.4807657, "lon": 126.9518268}, {"type": "node", "id": 5744702255, "lat": 37.4804014, "lon": 126.9517754}, {"type": "node", "id": 5744702256, "lat": 37.4803954, "lon": 126.951839}, {"type": "node", "id": 5744702257, "lat": 37.4803543, "lon": 126.9518829}, {"type": "node", "id": 5744702258, "lat": 37.4803875, "lon": 126.9519321}, {"type": "node", "id": 5744702259, "lat": 37.4803812, "lon": 126.951998}, {"type": "node", "id": 5744702260, "lat": 37.4807461, "lon": 126.9520495}, {"type": "node", "id": 5750687120, "lat": 37.4811591, "lon": 126.95131, "tags": {"amenity": "cafe", "branch": "\uc11c\uc6b8\ub300\uc785\uad6c\uc5ed", "brand": "\uc2a4\ud0c0\ubc85\uc2a4", "brand:en": "Starbucks", "brand:wikidata": "Q37158", "cuisine": "coffee_shop", "name": "Starbucks", "name:en": "Starbucks", "name:ja": "\u30b9\u30bf\u30fc\u30d0\u30c3\u30af\u30b9", "name:ko": "\uc2a4\ud0c0\ubc85\uc2a4", "payment:american_express": "yes", "payment:coins": "yes", "payment:diners_club": "yes", "payment:discover_card": "yes", "payment:jcb": "yes", "payment:mastercard": "yes", "payment:notes": "yes", "payment:unionpay": "yes", "payment:visa": "yes", "smoking": "no", "website": "http://www.istarbucks.co.kr/index.do"}}, {"type": "node", "id": 5759775958, "lat": 37.4809189, "lon": 126.9514027}, {"type": "node", "id": 5759775960, "lat": 37.4809037, "lon": 126.9514002}, {"type": "node", "id": 5759775961, "lat": 37.4808279, "lon": 126.9514684}, {"type": "node", "id": 5759775967, "lat": 37.4808109, "lon": 126.9516334}, {"type": "node", "id": 5759775972, "lat": 37.4808945, "lon": 126.9516469}, {"type": "node", "id": 5759775973, "lat": 37.4808361, "lon": 126.9513893}, {"type": "node", "id": 5759775982, "lat": 37.4802672, "lon": 126.9517553}, {"type": "node", "id": 5759775983, "lat": 37.4802462, "lon": 126.9519778}, {"type": "node", "id": 8067124187, "lat": 37.4804075, "lon": 126.953293, "tags": {"amenity": "restaurant", "name": "\uc0c8\ub9c8\uc744\uc2dd\ub2f9", "name:ko": "\uc0c8\ub9c8\uc744\uc2dd\ub2f9              \uc5f0\ud0c4\ubd88\uace0\uae30"}}, {"type": "node", "id": 8067133885, "lat": 37.4803096, "lon": 126.9531357, "tags": {"amenity": "restaurant", "name": "\ucc29\ud55c\ud3ec\ucc28"}}, {"type": "node", "id": 8067133886, "lat": 37.4802255, "lon": 126.9531204, "tags": {"amenity": "restaurant", "name": "\uc11c\uc6b8\ub300\uacf1\ucc3d"}}, {"type": "node", "id": 8323782858, "lat": 37.4811246, "lon": 126.9515464, "tags": {"amenity": "bank", "atm": "yes", "brand": "\uc6b0\ub9ac\uc740\ud589", "brand:en": "Woori Bank", "brand:wikidata": "Q494369", "brand:wikipedia": "ko:\uc6b0\ub9ac\uc740\ud589", "level": "1", "name": "\uc6b0\ub9ac\uc740\ud589", "name:en": "Woori Bank", "name:ja": "\u30a6\u30ea\u30a3\u9280\u884c", "name:ko": "\uc6b0\ub9ac\uc740\ud589", "name:zh": "\u53cb\u5229\u94f6\u884c", "opening_hours": "Mo-Fr 09:00-16:00", "operator": "\uc8fc\uc2dd\ud68c\uc0ac \uc6b0\ub9ac\uc740\ud589", "website": "https://www.wooribank.com/"}}, {"type": "way", "id": 605764872, "nodes": [5744702254, 5744702255, 5744702256, 5744702257, 5744702258, 5744702259, 5744702260, 5744702254], "tags": {"addr:housenumber": "10", "addr:street": "\uad00\uc545\ub85c15\uae38", "amenity": "place_of_worship", "building": "church", "building:material": "brick", "denomination": "presbyterian", "level": "5", "name": "\uc0c8\ubd09\ucc9c\uad50\ud68c", "name:en": "Saebongcheon Presbyterian Church", "name:ko": "\uc0c8\ubd09\ucc9c\uad50\ud68c", "religion": "christian"}}, {"type": "way", "id": 607843373, "nodes": [5759775967, 5759775972, 5759775958, 5759775960, 5759775973, 5759775961, 5759775967], "tags": {"amenity": "parking"}}, {"type": "way", "id": 607843375, "nodes": [5744702255, 5759775982, 5759775983, 5744702259, 5744702258, 5744702257, 5744702256, 5744702255], "tags": {"amenity": "parking"}}]}